{"0":{"year":2020,"name":"Celine Dion","Date":"1\/8\/2020","City":"Jacksonville","State":"Florida","Country":" USA","Venue":"VyStar Veterans Memorial Arena","Revenue":1912510,"lat":30.3321838,"lng":-81.655651},"1":{"year":2020,"name":"Celine Dion","Date":"1\/11\/2020","City":"Atlanta","State":"GA","Country":" USA","Venue":"State Farm Arena","Revenue":2323672,"lat":33.7489954,"lng":-84.3879824},"2":{"year":2020,"name":"Celine Dion","Date":"1\/13\/2020","City":"Nashville","State":"TN","Country":" USA","Venue":"Bridgestone Arena","Revenue":2103662,"lat":36.1626638,"lng":-86.7816016},"3":{"year":2020,"name":"Celine Dion","Date":"1\/15\/2020","City":"Tampa","State":"Florida","Country":" USA","Venue":"Amalie Arena","Revenue":2254145,"lat":27.950575,"lng":-82.4571776},"4":{"year":2020,"name":"Celine Dion","Date":"1\/17\/2020","City":"Miami","State":"Florida","Country":" USA","Venue":"American Airlines Arena","Revenue":5222838,"lat":25.7616798,"lng":-80.1917902},"5":{"year":2020,"name":"Celine Dion","Date":"1\/21\/2020","City":"Charlotte","State":"NC","Country":" USA","Venue":"Spectrum Center","Revenue":2161228,"lat":35.2270869,"lng":-80.8431267},"6":{"year":2020,"name":"Celine Dion","Date":"1\/30\/2020","City":"San Antonio","State":"TX","Country":" USA","Venue":"AT&T Center","Revenue":2021746,"lat":29.4241219,"lng":-98.4936282},"7":{"year":2020,"name":"Celine Dion","Date":"2\/1\/2020","City":"Houston","State":"TX","Country":" USA","Venue":"Toyota Center","Revenue":2127052,"lat":29.7604267,"lng":-95.3698028},"8":{"year":2020,"name":"Celine Dion","Date":"2\/3\/2020","City":"Dallas","State":"TX","Country":" USA","Venue":"American Airlines Center","Revenue":2657817,"lat":32.7766642,"lng":-96.7969879},"9":{"year":2020,"name":"Celine Dion","Date":"2\/5\/2020","City":"Tulsa","State":"OK","Country":" USA","Venue":"BOK Center","Revenue":1619919,"lat":36.1539816,"lng":-95.992775},"10":{"year":2020,"name":"Celine Dion","Date":"2\/7\/2020","City":"New Orleans","State":"LA","Country":" USA","Venue":"Smoothie King Center","Revenue":2278207,"lat":29.9510658,"lng":-90.0715323},"11":{"year":2020,"name":"Celine Dion","Date":"2\/9\/2020","City":"Memphis","State":"TN","Country":" USA","Venue":"FedExForum","Revenue":1609727,"lat":35.1495343,"lng":-90.0489801},"12":{"year":2020,"name":"Celine Dion","Date":"2\/11\/2020","City":"Raleigh","State":"NC","Country":" USA","Venue":"PNC Arena","Revenue":2150963,"lat":35.7795897,"lng":-78.6381787},"13":{"year":2020,"name":"Celine Dion","Date":"2\/18\/2020","City":"Montreal","State":"Canada","Country":"Canada","Venue":"Bell Centre","Revenue":3587437,"lat":45.5016889,"lng":-73.567256},"14":{"year":2020,"name":"Celine Dion","Date":"2\/22\/2020","City":"Atlantic City","State":"NJ","Country":" USA","Venue":"Boardwalk Hall","Revenue":2470305,"lat":39.3642834,"lng":-74.4229266},"15":{"year":2020,"name":"Celine Dion","Date":"2\/24\/2020","City":"Baltimore","State":"MD","Country":" USA","Venue":"Royal Farms Arena","Revenue":1591232,"lat":39.2903848,"lng":-76.6121893},"16":{"year":2020,"name":"Celine Dion","Date":"2\/26\/2020","City":"Philadelphia","State":"PA","Country":" USA","Venue":"Wells Fargo Center","Revenue":2011920,"lat":39.9525839,"lng":-75.1652215},"17":{"year":2020,"name":"Celine Dion","Date":"2\/28\/2020","City":"Brooklyn","State":"NY","Country":" USA","Venue":"Barclays Center","Revenue":5115713,"lat":40.6781784,"lng":-73.9441579},"18":{"year":2020,"name":"Celine Dion","Date":"3\/3\/2020","City":"Uniondale","State":"NY","Country":" USA","Venue":"Nassau Veterans Memorial Coliseum","Revenue":1985445,"lat":40.700611,"lng":-73.5931669},"19":{"year":2020,"name":"Celine Dion","Date":"3\/5\/2020","City":"Brooklyn","State":"NY","Country":" USA","Venue":"Barclays Center","Revenue":1875568,"lat":40.6781784,"lng":-73.9441579},"20":{"year":2020,"name":"Celine Dion","Date":"3\/7\/2020","City":"Newark","State":"NJ","Country":" USA","Venue":"Prudential Center","Revenue":4330802,"lat":40.735657,"lng":-74.1723667},"21":{"year":2019,"name":"The Rolling Stones","Date":"6\/21\/2019","City":"Chicago","State":"IL","Country":"USA","Venue":"Soldier Field","Revenue":21741564,"lat":41.8781136,"lng":-87.6297982},"22":{"year":2019,"name":"The Rolling Stones","Date":"6\/29\/2019","City":"Oro-Medonte","State":"Canada","Country":"Canada","Venue":"Burl's Creek Event Grounds","Revenue":0,"lat":44.5588002,"lng":-79.6574496},"23":{"year":2019,"name":"The Rolling Stones","Date":"7\/3\/2019","City":"Landover","State":"MI","Country":" USA","Venue":"FedExField","Revenue":9257202,"lat":38.9340002,"lng":-76.8966397},"24":{"year":2019,"name":"The Rolling Stones","Date":"7\/7\/2019","City":"Foxborough","State":"MA","Country":" USA","Venue":"Gillette Stadium","Revenue":11675732,"lat":42.0653812,"lng":-71.2478251},"25":{"year":2019,"name":"The Rolling Stones","Date":"7\/15\/2019","City":"New Orleans","State":"LA","Country":" USA","Venue":"Mercedes-Benz Superdome","Revenue":7163692,"lat":29.9510658,"lng":-90.0715323},"26":{"year":2019,"name":"The Rolling Stones","Date":"7\/19\/2019","City":"Jacksonville","State":"Florida","Country":" USA","Venue":"TIAA Bank Field","Revenue":10198392,"lat":30.3321838,"lng":-81.655651},"27":{"year":2019,"name":"The Rolling Stones","Date":"7\/23\/2019","City":"Philadelphia","State":"PA","Country":" USA","Venue":"Lincoln Financial Field","Revenue":11741373,"lat":39.9525839,"lng":-75.1652215},"28":{"year":2019,"name":"The Rolling Stones","Date":"7\/27\/2019","City":"Houston","State":"TX","Country":" USA","Venue":"NRG Stadium","Revenue":11068397,"lat":29.7604267,"lng":-95.3698028},"29":{"year":2019,"name":"The Rolling Stones","Date":"8\/1\/2019","City":"East Rutherford","State":"NJ","Country":" USA","Venue":"MetLife Stadium","Revenue":25510438,"lat":40.833989,"lng":-74.0970865},"30":{"year":2019,"name":"The Rolling Stones","Date":"8\/10\/2019","City":"Denver","State":"CO","Country":" USA","Venue":"Broncos Stadium at Mile High","Revenue":13494183,"lat":39.7392358,"lng":-104.990251},"31":{"year":2019,"name":"The Rolling Stones","Date":"8\/14\/2019","City":"Seattle","State":"WA","Country":" USA","Venue":"CenturyLink Field","Revenue":11835818,"lat":47.6062095,"lng":-122.3320708},"32":{"year":2019,"name":"The Rolling Stones","Date":"8\/18\/2019","City":"Santa Clara","State":"CA","Country":" USA","Venue":"Levi's Stadium","Revenue":11496719,"lat":37.3541079,"lng":-121.9552356},"33":{"year":2019,"name":"The Rolling Stones","Date":"8\/22\/2019","City":"Pasadena","State":"CA","Country":" USA","Venue":"Rose Bowl","Revenue":13113319,"lat":34.1477849,"lng":-118.1445155},"34":{"year":2019,"name":"The Rolling Stones","Date":"8\/26\/2019","City":"Glendale","State":"CA","Country":" USA","Venue":"State Farm Stadium","Revenue":9747170,"lat":34.1425078,"lng":-118.255075},"35":{"year":2019,"name":"The Rolling Stones","Date":"8\/30\/2019","City":"Miami Gardens","State":"FL","Country":" USA","Venue":"Hard Rock Stadium","Revenue":9762771,"lat":25.9420377,"lng":-80.2456045},"36":{"year":2018,"name":"Taylor Swift","Date":"5\/8\/2018","City":"Glendale","State":"CA","Country":" USA","Venue":"University of Phoenix Stadium","Revenue":7214478,"lat":34.1425078,"lng":-118.255075},"37":{"year":2018,"name":"Taylor Swift","Date":"5\/11\/2018","City":"Santa Clara","State":"CA","Country":" USA","Venue":"Levi's Stadium","Revenue":14006963,"lat":37.3541079,"lng":-121.9552356},"38":{"year":2018,"name":"Taylor Swift","Date":"5\/18\/2018","City":"Pasadena","State":"CA","Country":" USA","Venue":"Rose Bowl","Revenue":16251980,"lat":34.1477849,"lng":-118.1445155},"39":{"year":2018,"name":"Taylor Swift","Date":"5\/22\/2018","City":"Seattle","State":"WA","Country":" USA","Venue":"CenturyLink Field","Revenue":8672219,"lat":47.6062095,"lng":-122.3320708},"40":{"year":2018,"name":"Taylor Swift","Date":"5\/25\/2018","City":"Denver","State":"CO","Country":" USA","Venue":"Sports Authority Field at Mile High","Revenue":7926366,"lat":39.7392358,"lng":-104.990251},"41":{"year":2018,"name":"Taylor Swift","Date":"6\/1\/2018","City":"Chicago","State":"IL","Country":" USA","Venue":"Soldier Field","Revenue":14576697,"lat":41.8781136,"lng":-87.6297982},"42":{"year":2018,"name":"Taylor Swift","Date":"6\/30\/2018","City":"Louisville","State":"KY","Country":" USA","Venue":"Cardinal Stadium","Revenue":4928219,"lat":38.2526647,"lng":-85.7584557},"43":{"year":2018,"name":"Taylor Swift","Date":"7\/7\/2018","City":"Columbus","State":"OH","Country":" USA","Venue":"Ohio Stadium","Revenue":6606529,"lat":39.9611755,"lng":-82.9987942},"44":{"year":2018,"name":"Taylor Swift","Date":"7\/10\/2018","City":"Landover","State":"MI","Country":" USA","Venue":"FedExField","Revenue":11396004,"lat":38.9340002,"lng":-76.8966397},"45":{"year":2018,"name":"Taylor Swift","Date":"7\/13\/2018","City":"Philadelphia","State":"PA","Country":" USA","Venue":"Lincoln Financial Field","Revenue":11951047,"lat":39.9525839,"lng":-75.1652215},"46":{"year":2018,"name":"Taylor Swift","Date":"7\/17\/2018","City":"Cleveland","State":"OH","Country":" USA","Venue":"FirstEnergy Stadium","Revenue":5148757,"lat":41.49932,"lng":-81.6943605},"47":{"year":2018,"name":"Taylor Swift","Date":"7\/20\/2018","City":"East Rutherford","State":"NJ","Country":" USA","Venue":"MetLife Stadium","Revenue":22031386,"lat":40.833989,"lng":-74.0970865},"48":{"year":2018,"name":"Taylor Swift","Date":"7\/26\/2018","City":"Foxborough","State":"MA","Country":" USA","Venue":"Gillette Stadium","Revenue":21779846,"lat":42.0653812,"lng":-71.2478251},"49":{"year":2018,"name":"Taylor Swift","Date":"8\/3\/2018","City":"Toronto","State":"Canada","Country":"Canada","Venue":"Rogers Centre","Revenue":11177000,"lat":43.653226,"lng":-79.3831843},"50":{"year":2018,"name":"Taylor Swift","Date":"8\/7\/2018","City":"Pittsburgh","State":"PA","Country":" USA","Venue":"Heinz Field","Revenue":6230876,"lat":40.4406248,"lng":-79.9958864},"51":{"year":2018,"name":"Taylor Swift","Date":"8\/10\/2018","City":"Atlanta","State":"GA","Country":" USA","Venue":"Mercedes-Benz Stadium","Revenue":18089415,"lat":33.7489954,"lng":-84.3879824},"52":{"year":2018,"name":"Taylor Swift","Date":"8\/14\/2018","City":"Tampa","State":"FL","Country":" USA","Venue":"Raymond James Stadium","Revenue":7244264,"lat":27.950575,"lng":-82.4571776},"53":{"year":2018,"name":"Taylor Swift","Date":"8\/18\/2018","City":"Miami Gardens","State":"FL","Country":" USA","Venue":"Hard Rock Stadium","Revenue":7072164,"lat":25.9420377,"lng":-80.2456045},"54":{"year":2018,"name":"Taylor Swift","Date":"8\/25\/2018","City":"Nashville","State":"TN","Country":" USA","Venue":"Nissan Stadium","Revenue":9007179,"lat":36.1626638,"lng":-86.7816016},"55":{"year":2018,"name":"Taylor Swift","Date":"8\/28\/2018","City":"Detroit","State":"MI","Country":" USA","Venue":"Ford Field","Revenue":6597852,"lat":42.331427,"lng":-83.0457538},"56":{"year":2018,"name":"Taylor Swift","Date":"8\/31\/2018","City":"Minneapolis","State":"MN","Country":" USA","Venue":"U.S. Bank Stadium","Revenue":10242024,"lat":44.977753,"lng":-93.2650108},"57":{"year":2018,"name":"Taylor Swift","Date":"9\/8\/2018","City":"Kansas City","State":"KS","Country":" USA","Venue":"Arrowhead Stadium","Revenue":6730138,"lat":39.0997265,"lng":-94.5785667},"58":{"year":2018,"name":"Taylor Swift","Date":"9\/15\/2018","City":"Indianapolis","State":"IN","Country":" USA","Venue":"Lucas Oil Stadium","Revenue":6531245,"lat":39.768403,"lng":-86.158068},"59":{"year":2018,"name":"Taylor Swift","Date":"9\/18\/2018","City":"St. Louis","State":"MO","Country":" USA","Venue":"The Dome at America's Center","Revenue":4884054,"lat":38.6270025,"lng":-90.1994042},"60":{"year":2018,"name":"Taylor Swift","Date":"9\/22\/2018","City":"New Orleans","State":"LA","Country":" USA","Venue":"Mercedes-Benz Superdome","Revenue":6491546,"lat":29.9510658,"lng":-90.0715323},"61":{"year":2018,"name":"Taylor Swift","Date":"9\/29\/2018","City":"Houston","State":"TX","Country":" USA","Venue":"NRG Stadium","Revenue":9350275,"lat":29.7604267,"lng":-95.3698028},"62":{"year":2018,"name":"Taylor Swift","Date":"10\/5\/2018","City":"Arlington","State":"VA","Country":" USA","Venue":"AT&T Stadium","Revenue":15006157,"lat":32.735687,"lng":-97.1080656},"63":{"year":2017,"name":"U2","Date":"5\/12\/2017","City":"Vancouver","State":"Canada","Country":"Canada","Venue":"BC Place","Revenue":4321731,"lat":49.2827291,"lng":-123.1207375},"64":{"year":2017,"name":"U2","Date":"5\/14\/2017","City":"Seattle","State":"WA","Country":" USA","Venue":"CenturyLink Field","Revenue":6249670,"lat":47.6062095,"lng":-122.3320708},"65":{"year":2017,"name":"U2","Date":"5\/17\/2017","City":"Santa Clara","State":"CA","Country":" USA","Venue":"Levi's Stadium","Revenue":6268805,"lat":37.3541079,"lng":-121.9552356},"66":{"year":2017,"name":"U2","Date":"5\/20\/2017","City":"Pasadena","State":"CA","Country":" USA","Venue":"Rose Bowl","Revenue":15784565,"lat":34.1477849,"lng":-118.1445155},"67":{"year":2017,"name":"U2","Date":"5\/24\/2017","City":"Houston","State":"TX","Country":" USA","Venue":"NRG Stadium","Revenue":5889005,"lat":29.7604267,"lng":-95.3698028},"68":{"year":2017,"name":"U2","Date":"5\/26\/2017","City":"Arlington","State":"TX","Country":" USA","Venue":"AT&T Stadium","Revenue":6044330,"lat":32.735687,"lng":-97.1080656},"69":{"year":2017,"name":"U2","Date":"6\/3\/2017","City":"Chicago","State":"IL","Country":" USA","Venue":"Soldier Field","Revenue":13435925,"lat":41.8781136,"lng":-87.6297982},"70":{"year":2017,"name":"U2","Date":"6\/7\/2017","City":"Pittsburgh","State":"PA","Country":" USA","Venue":"Heinz Field","Revenue":4273920,"lat":40.4406248,"lng":-79.9958864},"71":{"year":2017,"name":"U2","Date":"6\/9\/2017","City":"Manchester","State":"TN","Country":" USA","Venue":"Great Stage Park","Revenue":0,"lat":53.4807593,"lng":-2.2426305},"72":{"year":2017,"name":"U2","Date":"6\/11\/2017","City":"Miami Gardens","State":"FL","Country":" USA","Venue":"Hard Rock Stadium","Revenue":5923665,"lat":25.9420377,"lng":-80.2456045},"73":{"year":2017,"name":"U2","Date":"6\/14\/2017","City":"Tampa","State":"FL","Country":" USA","Venue":"Raymond James Stadium","Revenue":6125415,"lat":27.950575,"lng":-82.4571776},"74":{"year":2017,"name":"U2","Date":"6\/16\/2017","City":"Louisville","State":"KY","Country":" USA","Venue":"Papa John's Cardinal Stadium","Revenue":4810535,"lat":38.2526647,"lng":-85.7584557},"75":{"year":2017,"name":"U2","Date":"6\/18\/2017","City":"Philadelphia","State":"PA","Country":" USA","Venue":"Lincoln Financial Field","Revenue":6259880,"lat":39.9525839,"lng":-75.1652215},"76":{"year":2017,"name":"U2","Date":"6\/20\/2017","City":"Landover","State":"MI","Country":" USA","Venue":"FedExField","Revenue":6286385,"lat":38.9340002,"lng":-76.8966397},"77":{"year":2017,"name":"U2","Date":"6\/23\/2017","City":"Toronto","State":"Canada","Country":"Canada","Venue":"Rogers Centre","Revenue":5059568,"lat":43.653226,"lng":-79.3831843},"78":{"year":2017,"name":"U2","Date":"6\/25\/2017","City":"Foxborough","State":"MA","Country":" USA","Venue":"Gillette Stadium","Revenue":6881340,"lat":42.0653812,"lng":-71.2478251},"79":{"year":2017,"name":"U2","Date":"6\/28\/2017","City":"East Rutherford","State":"NJ","Country":" USA","Venue":"MetLife Stadium","Revenue":14568805,"lat":40.833989,"lng":-74.0970865},"80":{"year":2017,"name":"U2","Date":"7\/1\/2017","City":"Cleveland","State":"OH","Country":" USA","Venue":"FirstEnergy Stadium","Revenue":5582965,"lat":41.49932,"lng":-81.6943605},"81":{"year":2016,"name":"Beyonce","Date":"4\/27\/2016","City":"Miami","State":"FL","Country":" USA","Venue":"Marlins Park","Revenue":5252615,"lat":25.7616798,"lng":-80.1917902},"82":{"year":2016,"name":"Beyonce","Date":"4\/29\/2016","City":"Tampa","State":"FL","Country":" USA","Venue":"Raymond James Stadium","Revenue":4803295,"lat":27.950575,"lng":-82.4571776},"83":{"year":2016,"name":"Beyonce","Date":"5\/1\/2016","City":"Atlanta","State":"GA","Country":" USA","Venue":"Georgia Dome","Revenue":5801725,"lat":33.7489954,"lng":-84.3879824},"84":{"year":2016,"name":"Beyonce","Date":"5\/3\/2016","City":"Raleigh","State":"NC","Country":" USA","Venue":"Carter\u2013Finley Stadium","Revenue":4810620,"lat":35.7795897,"lng":-78.6381787},"85":{"year":2016,"name":"Beyonce","Date":"5\/7\/2016","City":"Houston","State":"TX","Country":" USA","Venue":"NRG Stadium","Revenue":6412280,"lat":29.7604267,"lng":-95.3698028},"86":{"year":2016,"name":"Beyonce","Date":"5\/9\/2016","City":"Arlington","State":"TX","Country":" USA","Venue":"AT&T Stadium","Revenue":5954775,"lat":32.735687,"lng":-97.1080656},"87":{"year":2016,"name":"Beyonce","Date":"5\/12\/2016","City":"San Diego","State":"CA","Country":" USA","Venue":"Qualcomm Stadium","Revenue":6028115,"lat":32.715738,"lng":-117.1610838},"88":{"year":2016,"name":"Beyonce","Date":"5\/14\/2016","City":"Pasadena","State":"CA","Country":" USA","Venue":"Rose Bowl","Revenue":7138685,"lat":34.1477849,"lng":-118.1445155},"89":{"year":2016,"name":"Beyonce","Date":"5\/16\/2016","City":"Santa Clara","State":"CA","Country":" USA","Venue":"Levi's Stadium","Revenue":6201845,"lat":37.3541079,"lng":-121.9552356},"90":{"year":2016,"name":"Beyonce","Date":"5\/18\/2016","City":"Seattle","State":"WA","Country":" USA","Venue":"CenturyLink Field","Revenue":5415810,"lat":47.6062095,"lng":-122.3320708},"91":{"year":2016,"name":"Beyonce","Date":"5\/20\/2016","City":"Edmonton","State":"Canada","Country":"Canada","Venue":"Commonwealth Stadium","Revenue":3723830,"lat":53.5461245,"lng":-113.4938229},"92":{"year":2016,"name":"Beyonce","Date":"5\/23\/2016","City":"Minneapolis","State":"MN","Country":" USA","Venue":"TCF Bank Stadium","Revenue":4174270,"lat":44.977753,"lng":-93.2650108},"93":{"year":2016,"name":"Beyonce","Date":"5\/25\/2016","City":"Toronto","State":"Canada","Country":"Canada","Venue":"Rogers Centre","Revenue":4440554,"lat":43.653226,"lng":-79.3831843},"94":{"year":2016,"name":"Beyonce","Date":"5\/27\/2016","City":"Chicago","State":"IL","Country":" USA","Venue":"Soldier Field","Revenue":11279890,"lat":41.8781136,"lng":-87.6297982},"95":{"year":2016,"name":"Beyonce","Date":"5\/31\/2016","City":"Pittsburgh","State":"PA","Country":" USA","Venue":"Heinz Field","Revenue":3927805,"lat":40.4406248,"lng":-79.9958864},"96":{"year":2016,"name":"Beyonce","Date":"6\/3\/2016","City":"Foxborough","State":"MA","Country":" USA","Venue":"Gillette Stadium","Revenue":6008698,"lat":42.0653812,"lng":-71.2478251},"97":{"year":2016,"name":"Beyonce","Date":"6\/5\/2016","City":"Philadelphia","State":"PA","Country":" USA","Venue":"Lincoln Financial Field","Revenue":5563435,"lat":39.9525839,"lng":-75.1652215},"98":{"year":2016,"name":"Beyonce","Date":"6\/7\/2016","City":"New York City","State":"NY","Country":" USA","Venue":"Citi Field","Revenue":11461340,"lat":40.7127753,"lng":-74.0059728},"99":{"year":2016,"name":"Beyonce","Date":"6\/10\/2016","City":"Baltimore","State":"MD","Country":" USA","Venue":"M&T Bank Stadium","Revenue":5770660,"lat":39.2903848,"lng":-76.6121893},"100":{"year":2016,"name":"Beyonce","Date":"6\/12\/2016","City":"Hershey","State":"PA","Country":" USA","Venue":"Hersheypark Stadium","Revenue":3474695,"lat":40.2859239,"lng":-76.6502468},"101":{"year":2016,"name":"Beyonce","Date":"6\/14\/2016","City":"Detroit","State":"MI","Country":" USA","Venue":"Ford Field","Revenue":5471395,"lat":42.331427,"lng":-83.0457538},"102":{"year":2016,"name":"Beyonce","Date":"9\/10\/2016","City":"St. Louis","State":"MO","Country":" USA","Venue":"The Dome at America's Center","Revenue":3953445,"lat":38.6270025,"lng":-90.1994042},"103":{"year":2016,"name":"Beyonce","Date":"9\/14\/2016","City":"Los Angeles","State":"CA","Country":" USA","Venue":"Dodger Stadium","Revenue":6736700,"lat":34.0522342,"lng":-118.2436849},"104":{"year":2016,"name":"Beyonce","Date":"9\/17\/2016","City":"Santa Clara","State":"CA","Country":" USA","Venue":"Levi's Stadium","Revenue":4898690,"lat":37.3541079,"lng":-121.9552356},"105":{"year":2016,"name":"Beyonce","Date":"9\/22\/2016","City":"Houston","State":"TX","Country":" USA","Venue":"NRG Stadium","Revenue":5107065,"lat":29.7604267,"lng":-95.3698028},"106":{"year":2016,"name":"Beyonce","Date":"9\/24\/2016","City":"New Orleans","State":"LA","Country":" USA","Venue":"Mercedes-Benz Superdome","Revenue":5349960,"lat":29.9510658,"lng":-90.0715323},"107":{"year":2016,"name":"Beyonce","Date":"9\/26\/2016","City":"Atlanta","State":"GA","Country":" USA","Venue":"Georgia Dome","Revenue":5374615,"lat":33.7489954,"lng":-84.3879824},"108":{"year":2016,"name":"Beyonce","Date":"9\/29\/2016","City":"Philadelphia","State":"PA","Country":" USA","Venue":"Lincoln Financial Field","Revenue":3353627,"lat":39.9525839,"lng":-75.1652215},"109":{"year":2016,"name":"Beyonce","Date":"10\/2\/2016","City":"Nashville","State":"TN","Country":" USA","Venue":"Nissan Stadium","Revenue":5182345,"lat":36.1626638,"lng":-86.7816016},"110":{"year":2016,"name":"Beyonce","Date":"10\/7\/2016","City":"East Rutherford","State":"NJ","Country":" USA","Venue":"MetLife Stadium","Revenue":6064625,"lat":40.833989,"lng":-74.0970865},"111":{"year":2015,"name":"Taylor Swift","Date":"5\/15\/2015","City":"Las Vegas","State":"NV","Country":" USA","Venue":"City of Rock","Revenue":0,"lat":36.1699412,"lng":-115.1398296},"112":{"year":2015,"name":"Taylor Swift","Date":"5\/20\/2015","City":"Bossier City","State":"LA","Country":" USA","Venue":"CenturyLink Center","Revenue":1458197,"lat":32.5159852,"lng":-93.7321228},"113":{"year":2015,"name":"Taylor Swift","Date":"5\/22\/2015","City":"Baton Rouge","State":"LA","Country":" USA","Venue":"LSU Tiger Stadium","Revenue":4119670,"lat":30.4514677,"lng":-91.1871466},"114":{"year":2015,"name":"Taylor Swift","Date":"5\/30\/2015","City":"Detroit","State":"MI","Country":" USA","Venue":"Ford Field","Revenue":5999690,"lat":42.331427,"lng":-83.0457538},"115":{"year":2015,"name":"Taylor Swift","Date":"6\/2\/2015","City":"Louisville","State":"KY","Country":" USA","Venue":"KFC Yum! Center","Revenue":1863281,"lat":38.2526647,"lng":-85.7584557},"116":{"year":2015,"name":"Taylor Swift","Date":"6\/3\/2015","City":"Cleveland","State":"OH","Country":" USA","Venue":"Quicken Loans Arena","Revenue":1732041,"lat":41.49932,"lng":-81.6943605},"117":{"year":2015,"name":"Taylor Swift","Date":"6\/6\/2015","City":"Pittsburgh","State":"PA","Country":" USA","Venue":"Heinz Field","Revenue":5836926,"lat":40.4406248,"lng":-79.9958864},"118":{"year":2015,"name":"Taylor Swift","Date":"6\/8\/2015","City":"Charlotte","State":"NC","Country":" USA","Venue":"Time Warner Cable Arena","Revenue":1627798,"lat":35.2270869,"lng":-80.8431267},"119":{"year":2015,"name":"Taylor Swift","Date":"6\/9\/2015","City":"Raleigh","State":"NC","Country":" USA","Venue":"PNC Arena","Revenue":1653762,"lat":35.7795897,"lng":-78.6381787},"120":{"year":2015,"name":"Taylor Swift","Date":"6\/12\/2015","City":"Philadelphia","State":"PA","Country":" USA","Venue":"Lincoln Financial Field","Revenue":11987816,"lat":39.9525839,"lng":-75.1652215},"121":{"year":2015,"name":"Taylor Swift","Date":"7\/6\/2015","City":"Ottawa","State":"Canada","Country":"Canada","Venue":"Canadian Tire Centre","Revenue":1325480,"lat":45.4215296,"lng":-75.6971931},"122":{"year":2015,"name":"Taylor Swift","Date":"7\/7\/2015","City":"Montreal","State":"Canada","Country":"Canada","Venue":"Bell Centre","Revenue":1499040,"lat":45.5016889,"lng":-73.567256},"123":{"year":2015,"name":"Taylor Swift","Date":"7\/10\/2015","City":"East Rutherford","State":"NJ","Country":" USA","Venue":"MetLife Stadium","Revenue":13423858,"lat":40.833989,"lng":-74.0970865},"124":{"year":2015,"name":"Taylor Swift","Date":"7\/13\/2015","City":"Washington, D.C.","State":"DC","Country":" USA","Venue":"Nationals Park","Revenue":9730596,"lat":38.9071923,"lng":-77.0368707},"125":{"year":2015,"name":"Taylor Swift","Date":"7\/18\/2015","City":"Chicago","State":"IL","Country":" USA","Venue":"Soldier Field","Revenue":11469887,"lat":41.8781136,"lng":-87.6297982},"126":{"year":2015,"name":"Taylor Swift","Date":"7\/24\/2015","City":"Foxborough","State":"MA","Country":" USA","Venue":"Gillette Stadium","Revenue":12533166,"lat":42.0653812,"lng":-71.2478251},"127":{"year":2015,"name":"Taylor Swift","Date":"8\/1\/2015","City":"Vancouver","State":"Canada","Country":"Canada","Venue":"BC Place Stadium","Revenue":4081820,"lat":49.2827291,"lng":-123.1207375},"128":{"year":2015,"name":"Taylor Swift","Date":"8\/4\/2015","City":"Edmonton","State":"Canada","Country":"Canada","Venue":"Rexall Place","Revenue":2387080,"lat":53.5461245,"lng":-113.4938229},"129":{"year":2015,"name":"Taylor Swift","Date":"8\/8\/2015","City":"Seattle","State":"WA","Country":" USA","Venue":"CenturyLink Field","Revenue":6050643,"lat":47.6062095,"lng":-122.3320708},"130":{"year":2015,"name":"Taylor Swift","Date":"8\/14\/2015","City":"Santa Clara","State":"CA","Country":"USA","Venue":"Levi's Stadium","Revenue":13031146,"lat":37.3541079,"lng":-121.9552356},"131":{"year":2015,"name":"Taylor Swift","Date":"8\/17\/2015","City":"Glendale","State":"CA","Country":" USA","Venue":"Gila River Arena","Revenue":3029628,"lat":34.1425078,"lng":-118.255075},"132":{"year":2015,"name":"Taylor Swift","Date":"8\/21\/2015","City":"Los Angeles","State":"CA","Country":" USA","Venue":"Staples Center","Revenue":8961681,"lat":34.0522342,"lng":-118.2436849},"133":{"year":2015,"name":"Taylor Swift","Date":"8\/29\/2015","City":"San Diego","State":"CA","Country":" USA","Venue":"Petco Park","Revenue":5475237,"lat":32.715738,"lng":-117.1610838},"134":{"year":2015,"name":"Taylor Swift","Date":"9\/4\/2015","City":"Salt Lake City","State":"UT","Country":" USA","Venue":"EnergySolutions Arena","Revenue":1589686,"lat":40.7607793,"lng":-111.8910474},"135":{"year":2015,"name":"Taylor Swift","Date":"9\/5\/2015","City":"Denver","State":"CO","Country":" USA","Venue":"Pepsi Center","Revenue":2868991,"lat":39.7392358,"lng":-104.990251},"136":{"year":2015,"name":"Taylor Swift","Date":"9\/9\/2015","City":"Houston","State":"TX","Country":" USA","Venue":"Minute Maid Park","Revenue":5202196,"lat":29.7604267,"lng":-95.3698028},"137":{"year":2015,"name":"Taylor Swift","Date":"9\/11\/2015","City":"Saint Paul","State":"MN","Country":" USA","Venue":"Xcel Energy Center","Revenue":5514863,"lat":44.9537029,"lng":-93.0899578},"138":{"year":2015,"name":"Taylor Swift","Date":"9\/16\/2015","City":"Indianapolis","State":"IN","Country":" USA","Venue":"Bankers Life Fieldhouse","Revenue":1550268,"lat":39.768403,"lng":-86.158068},"139":{"year":2015,"name":"Taylor Swift","Date":"9\/17\/2015","City":"Columbus","State":"OH","Country":" USA","Venue":"Nationwide Arena","Revenue":3369693,"lat":39.9611755,"lng":-82.9987942},"140":{"year":2015,"name":"Taylor Swift","Date":"9\/21\/2015","City":"Kansas City","State":"KS","Country":" USA","Venue":"Sprint Center","Revenue":2967558,"lat":39.0997265,"lng":-94.5785667},"141":{"year":2015,"name":"Taylor Swift","Date":"9\/25\/2015","City":"Nashville","State":"TN","Country":" USA","Venue":"Bridgestone Arena","Revenue":3354844,"lat":36.1626638,"lng":-86.7816016},"142":{"year":2015,"name":"Taylor Swift","Date":"9\/28\/2015","City":"St. Louis","State":"MO","Country":" USA","Venue":"Scottrade Center","Revenue":3452940,"lat":38.6270025,"lng":-90.1994042},"143":{"year":2015,"name":"Taylor Swift","Date":"10\/2\/2015","City":"Toronto","State":"Canada","Country":"Canada","Venue":"Rogers Centre","Revenue":8670990,"lat":43.653226,"lng":-79.3831843},"144":{"year":2015,"name":"Taylor Swift","Date":"10\/8\/2015","City":"Des Moines","State":"IA","Country":" USA","Venue":"Wells Fargo Arena","Revenue":1566321,"lat":41.5868353,"lng":-93.6249593},"145":{"year":2015,"name":"Taylor Swift","Date":"10\/9\/2015","City":"Omaha","State":"NE","Country":" USA","Venue":"CenturyLink Center Omaha","Revenue":3121421,"lat":41.2565369,"lng":-95.9345034},"146":{"year":2015,"name":"Taylor Swift","Date":"10\/12\/2015","City":"Fargo","State":"ND","Country":" USA","Venue":"Fargodome","Revenue":2219188,"lat":46.8771863,"lng":-96.7898034},"147":{"year":2015,"name":"Taylor Swift","Date":"10\/17\/2015","City":"Arlington","State":"VA","Country":" USA","Venue":"AT&T Stadium","Revenue":7396733,"lat":32.735687,"lng":-97.1080656},"148":{"year":2015,"name":"Taylor Swift","Date":"10\/20\/2015","City":"Lexington","State":"KY","Country":" USA","Venue":"Rupp Arena","Revenue":1870471,"lat":38.0405837,"lng":-84.5037164},"149":{"year":2015,"name":"Taylor Swift","Date":"10\/21\/2015","City":"Greensboro","State":"NC","Country":" USA","Venue":"Greensboro Coliseum","Revenue":1662171,"lat":36.0726354,"lng":-79.7919754},"150":{"year":2015,"name":"Taylor Swift","Date":"10\/24\/2015","City":"Atlanta","State":"GA","Country":" USA","Venue":"Georgia Dome","Revenue":6034846,"lat":33.7489954,"lng":-84.3879824},"151":{"year":2015,"name":"Taylor Swift","Date":"10\/27\/2015","City":"Miami","State":"FL","Country":" USA","Venue":"American Airlines Arena","Revenue":1527919,"lat":25.7616798,"lng":-80.1917902},"152":{"year":2015,"name":"Taylor Swift","Date":"10\/31\/2015","City":"Tampa","State":"FL","Country":" USA","Venue":"Raymond James Stadium","Revenue":6202515,"lat":27.950575,"lng":-82.4571776}}